[
  {
      "model": "dineblackapp.restaurant",
      "pk": 1,
      "fields": {
          "name": "Coneheads",
          "city": "Nashville",
          "state": "Tennessee",
          "address": "1315 Dickerson Pike",
          "zip_code": "37207",
          "phone_number": "629-888-4867",
          "latitude": "36.195490",
          "longitude": "-86.771710",
          "image": "https://cdn.nashvillescene.com/files/base/scomm/nvs/image/2020/06/16x9/960w/Coneheads_1.5ee90293cd4f7.jpg"
      }
  },
  {
    "model": "dineblackapp.restaurant",
    "pk": 2,
    "fields": {
        "name": "Amy's Ethiopian Cafe",
        "city": "Nashville",
        "state": "Tennessee",
        "address": "2510 Murfreesboro Pike #10",
        "zip_code": "37217",
        "phone_number": "615-840-6431",
        "latitude": "36.078860",
        "longitude": "-86.642590",
        "image": "https://amysethiopianrestaurant.com/wp-content/uploads/2017/11/taste_of_amys_dorowat.jpg"

    }
  },
  {
    "model": "dineblackapp.restaurant",
    "pk": 3,
    "fields": {
        "name": "Bone's Fish & More",
        "city": "Nashville",
        "state": "Tennessee",
        "address": "2597 Murfreesboro Pike",
        "zip_code": "37217",
        "phone_number": "629-888-9931",
        "latitude": "36.074610",
        "longitude": "86.639630",
        "image": "https://d1ralsognjng37.cloudfront.net/660cb490-845a-4dd9-97b9-371bdf411916.jpeg"
    }
  },
  {
    "model": "dineblackapp.restaurant",
    "pk": 4,
    "fields": {
        "name": "Fat Boys BBQ",
        "city": "Antioch",
        "state": "Tennessee",
        "address": "2733 Murfreesboro Pike",
        "zip_code": "37013",
        "phone_number": "615-360-9969",
        "latitude": "36.069120",
        "longitude": "-86.633550",
        "image": "https://2.bp.blogspot.com/-4vP49eJcAYc/WVz2jNL8CRI/AAAAAAAABWA/n1-t_z-aGA46CWt2HWTcHFStegm0BGgZgCLcBGAs/s1600/Fat%2BBoys%2B3.JPG"
    }
  },
  {
    "model": "dineblackapp.restaurant",
    "pk": 5,
    "fields": {
        "name": "Prince's Hot Chicken Shack South",
        "city": "Nashville",
        "state": "Tennessee",
        "address": "5814 Nolensville Pike #110",
        "zip_code": "37211",
        "phone_number": "615-810-9388",
        "latitude": "36.043709",
        "longitude": "-86.712387",
        "image": "https://cdn.vox-cdn.com/thumbor/HmpL8nHFAUmnVLutRJX92k7pbao=/0x0:5446x3631/1200x0/filters:focal(0x0:5446x3631):no_upscale()/cdn.vox-cdn.com/uploads/chorus_asset/file/9293681/Princes_18A0783.jpg"
    }
  },
  {
    "model": "dineblackapp.restaurant",
    "pk": 6,
    "fields": {
        "name": "400 Degrees Hot Chicken",
        "city": "Nashville",
        "state": "Tennessee",
        "address": "3704 Clarksville Pike",
        "zip_code": "37218",
        "phone_number": "615-244-4467",
        "latitude": "36.043709",
        "longitude": "-86.712387",
        "image": "https://400degreeshotchicken.com/wp-content/uploads/2015/11/IMG_1955-700x500.jpg"
    }
  },
  {
    "model": "dineblackapp.restaurant",
    "pk": 7,
    "fields": {
        "name": "Taste of Perfection LLC",
        "city": "Nashville",
        "state": "Tennessee",
        "address": "3700 Buena Vista Pike",
        "zip_code": "37218",
        "phone_number": "6154806012",
        "latitude": "36.043709",
        "longitude": "-86.712387",
        "image": "https://wp-prod-resources.unation.com/stuff-to-do/wp-content/uploads/2020/07/14191908/Taste-Of-Perfection-1.jpg"
    }
  },
  {
    "model": "dineblackapp.restaurant",
    "pk": 9,
    "fields": {
        "name": "Gojo Ethiopian Cafe and Restaurant",
        "city": "Nashville",
        "state": "Tennessee",
        "address": "415 West Thompson Lane",
        "zip_code": "37211",
        "phone_number": "615-322-0710",
        "latitude": "36.043709",
        "longitude": "-86.712387",
        "image": "https://images.happycow.net/venues/1024/36/69/hcmp36698_239149.jpeg"
    }
  },
  {
    "model": "dineblackapp.restaurant",
    "pk": 10,
    "fields": {
        "name": "StrikeOut Wingz",
        "city": "Nashville",
        "state": "Tennessee",
        "address": "2521 Nolensville Pike",
        "zip_code": "37211",
        "phone_number": "615-891-1298",
        "latitude": "36.043709",
        "longitude": "-86.712387",
        "image": "https://d1ralsognjng37.cloudfront.net/623f6ee4-8892-47fb-a11e-e69026101919.jpeg"
    }
  },
  {
    "model": "dineblackapp.restaurant",
    "pk": 11,
    "fields": {
        "name": "Ajora Kitchen",
        "city": "Nashville",
        "state": "Tennessee",
        "address": "34 Arcade Valley",
        "zip_code": "37219",
        "phone_number": "615-891-1898",
        "latitude": "36.043709",
        "longitude": "-86.712387",
        "image": "https://images.squarespace-cdn.com/content/v1/5da5e9a8c65679541d6478fc/1572274508066-18VLB5031K8QE6L42Q7S/ke17ZwdGBToddI8pDm48kLUlInGHr3yZ8VaDf7FvjIN7gQa3H78H3Y0txjaiv_0fDoOvxcdMmMKkDsyUqMSsMWxHk725yiiHCCLfrh8O1z5QPOohDIaIeljMHgDF5CVlOqpeNLcJ80NK65_fV7S1UQMWKbUUuaV-EpzDziXPdS212yXY2R1Vm7G_O2FptHFDNqcg1uYJ0UckdvGUXVHAnA/20140828_0030Websize.jpg"
    }
  },
  {
    "model": "dineblackapp.restaurant",
    "pk": 12,
    "fields": {
        "name": "Silver Sands Soul Food Cafe",
        "city": "Nashville",
        "state": "Tennessee",
        "address": "937 Locklayer St.",
        "zip_code": "37208",
        "phone_number": "615-780-9900",
        "latitude": "36.043709",
        "longitude": "-86.712387",
        "image": "https://img-aws.ehowcdn.com/700x/cdn.onlyinyourstate.com/wp-content/uploads/2019/01/25438704_1618989211492226_7060360223883626206_o-700x699.jpg"
    }
  },
  {
    "model": "dineblackapp.restaurant",
    "pk": 13,
    "fields": {
        "name": "Bolton's Spicy Chicken & Fish",
        "city": "Antioch",
        "state": "Tennessee",
        "address": "1135 Bell Rd.",
        "zip_code": "37013",
        "phone_number": "615-730-8359",
        "latitude": "36.043709",
        "longitude": "-86.712387",
        "image": "https://parentingwhileintoxicated.files.wordpress.com/2014/01/hattie.jpg"
    }
  },
  {
    "model": "dineblackapp.restaurant",
    "pk": 15,
    "fields": {
        "name": "The Cake Project",
        "city": "Nashville",
        "state": "Tennessee",
        "address": "1600 Fatherland St. Suite 207",
        "zip_code": "37206",
        "phone_number": "615-538-8271",
        "latitude": "36.043709",
        "longitude": "-86.712387",
        "image": "https://images.squarespace-cdn.com/content/v1/56f974d97c65e4881fff8f75/1529854066923-6QWTB3B2MB9A362IWC9D/ke17ZwdGBToddI8pDm48kGafHgs9Mk44OqyBLDFoEHp7gQa3H78H3Y0txjaiv_0fDoOvxcdMmMKkDsyUqMSsMWxHk725yiiHCCLfrh8O1z5QHyNOqBUUEtDDsRWrJLTmzZHn3PYdZUow1T0ZeZQrhTkNZe5O8QN4iYQyz7DK3D831hJdD8ApgsYWQUFUy3Mc/cake+6.jpg?format=1000w"
    }
  },
  {
    "model": "dineblackapp.restaurant",
    "pk": 16,
    "fields": {
        "name": "HiFi Cookies",
        "city": "Nashville",
        "state": "Tennessee",
        "address": "733 Porter Rd.",
        "zip_code": "37206",
        "phone_number": "615-401-9949",
        "latitude": "36.043709",
        "longitude": "-86.712387",
        "image": "https://i2.wp.com/urbaanite.com/wp-content/uploads/2020/06/hifi-cookies-nashville5.png?w=613&h=409&ssl=1"
    }
  },
  {
    "model": "dineblackapp.restaurant",
    "pk": 17,
    "fields": {
        "name": "Kernels Gourmet Popcorn",
        "city": "Nashville",
        "state": "Tennessee",
        "address": "2501 Gallatin Ave B",
        "zip_code": "37206",
        "phone_number": "615-378-7674",
        "latitude": "36.043709",
        "longitude": "-86.712387",
        "image": ""
    }
  },
  {
    "model": "dineblackapp.restaurant",
    "pk": 18,
    "fields": {
        "name": "Shugga Hi Bakery and Cafe",
        "city": "Nashville",
        "state": "Tennessee",
        "address": "1000 Dickerson Pike",
        "zip_code": "37207",
        "phone_number": "615-928-6576",
        "latitude": "36.1893824",
        "longitude": "-86.7732255",
        "image": ""
    }
  },
  {
    "model": "dineblackapp.restaurant",
    "pk": 19,
    "fields": {
        "name": "Seafood Sensation",
        "city": "Nashville",
        "state": "Tennessee",
        "address": "2719 Jefferson St",
        "zip_code": "37208",
        "phone_number": "615-678-5606",
        "latitude": "36.1674083",
        "longitude": "-86.8200043",
        "image": ""
    }
  },
  {
    "model": "dineblackapp.restaurant",
    "pk": 20,
    "fields": {
        "name": "City Farm Company",
        "city": "Nashville",
        "state": "Tennessee",
        "address": "1407 Clinton St.",
        "zip_code": "37203",
        "phone_number": "615-772-4632",
        "latitude": "36.1635456",
        "longitude": "-86.7971221",
        "image": ""
    }
  },
  {
    "model": "dineblackapp.restaurant",
    "pk": 21,
    "fields": {
        "name": "Vege-licious Cafe",
        "city": "Nashville",
        "state": "Tennessee",
        "address": "513B Fisk St",
        "zip_code": "37203",
        "phone_number": "615-942-6978",
        "latitude": "36.1603219",
        "longitude": "-86.8007621",
        "image": ""
    }
  },
  {
    "model": "dineblackapp.restaurant",
    "pk": 22,
    "fields": {
        "name": "The Cupcake Collection",
        "city": "Nashville",
        "state": "Tennessee",
        "address": "1213 6th Ave North",
        "zip_code": "37208",
        "phone_number": "615-244-2900",
        "latitude": "36.1750325",
        "longitude": "36.1750325",
        "image": ""
    }
  },
  {
    "model": "dineblackapp.restaurant",
    "pk": 23,
    "fields": {
        "name": "8th and Roast",
        "city": "Nashville",
        "state": "Tennessee",
        "address": "2108 8th Ave South",
        "zip_code": "37204",
        "phone_number": "615-730-8074",
        "latitude": "36.1318079",
        "longitude": "-86.7785759",
        "image": ""
    }
  },
  {
    "model": "dineblackapp.restaurant",
    "pk": 24,
    "fields": {
        "name": "Tacos With A Twist",
        "city": "Nashville",
        "state": "Tennessee",
        "address": "810 Gale Park Lane #104",
        "zip_code": "37204",
        "phone_number": "615-649-8118",
        "latitude": "36.1196759",
        "longitude": "-86.7756514",
        "image": ""
    }
  },
  {
    "model": "dineblackapp.restaurant",
    "pk": 25,
    "fields": {
        "name": "Big Al's Deli",
        "city": "Nashville",
        "state": "Tennessee",
        "address": "1828 4th Ave North",
        "zip_code": "37208",
        "phone_number": "615-242-8118",
        "latitude": "36.1861475",
        "longitude": "-86.7939233",
        "image": ""
    }
  },
  {
    "model": "dineblackapp.restaurant",
    "pk": 26,
    "fields": {
        "name": "Germantown Pub",
        "city": "Nashville",
        "state": "Tennessee",
        "address": "708 Monroe St",
        "zip_code": "37208",
        "phone_number": "615-457-2145",
        "latitude": "36.1756569",
        "longitude": "-86.7925768",
        "image": ""
    }
  },
  {
    "model": "dineblackapp.restaurant",
    "pk": 28,
    "fields": {
        "name": "The Local Distro",
        "city": "Nashville",
        "state": "Tennessee",
        "address": "614 Garfield St",
        "zip_code": "37208",
        "phone_number": "615-942-8276",
        "latitude": "36.1814253",
        "longitude": "-86.7949996",
        "image": ""
    }
  },
  {
    "model": "dineblackapp.restaurant",
    "pk": 29,
    "fields": {
        "name": "Slim and Husky's Pizza Beeria",
        "city": "Nashville",
        "state": "Tennessee",
        "address": "911 Buchanan St",
        "zip_code": "37208",
        "phone_number": "615-647-7017",
        "latitude": "36.1802463",
        "longitude": "-86.8027084",
        "image": ""
    }
  },
  {
    "model": "dineblackapp.restaurant",
    "pk": 30,
    "fields": {
        "name": "The Southern V",
        "city": "Nashville",
        "state": "Tennessee",
        "address": "1200 Buchanan St",
        "zip_code": "37208",
        "phone_number": "615-802-8136",
        "latitude": "36.1803978",
        "longitude": "-86.8069492",
        "image": ""
    }
  }
] 